{"pageProps":{"restaurants":[{"status":"open","rating":5,"logo":"/images/pizza-hut-logo.png","photo":"/images/default-restaurant.jpg","orders":[],"phone":"12345677777","description":"sdkljafl;sdfsafdsafsdfasdfas","costs":{"minOrder":50,"delivery":0,"noDeliveryAfterMinOrder":true,"packaging":5},"name":"Cartofisserie 2","hours":{"wed":"12 - 22","thu":"12 - 22","sat":"12 - 22","tue":"12 - 22","sun":"12 - 18","fri":"12 - 22","mon":"12 - 22"},"addresses":[{"city":"Cluj-Napoca","number":6,"street":"aleea Baita","county":"Cluj","alias":"Home","country":"Romania"}],"uid":"3LSmjXBF7IzFvcU0yI0X"},{"description":"sdkljafl;sdfsafdsafsdfasdfas","costs":{"minOrder":50,"packaging":5,"delivery":0,"noDeliveryAfterMinOrder":true},"logo":"/images/pizza-hut-logo.png","uid":"6qyniWG1skAVDiXle0xK","name":"Cartofisserie","status":"open","addresses":[{"alias":"Home","city":"Cluj-Napoca","street":"aleea Baita","number":6,"country":"Romania","county":"Cluj"}],"phone":"12345677777","orders":[],"rating":4,"photo":"/images/default-restaurant.jpg","hours":{"tue":"12 - 22","wed":"12 - 22","sun":"12 - 18","mon":"12 - 22","fri":"12 - 22","thu":"12 - 22","sat":"12 - 22"}},{"description":"sdkljafl;sdfsafdsafsdfasdfas","name":"Cartofisserie","addresses":[{"country":"Romania","number":6,"city":"Cluj-Napoca","county":"Cluj","street":"aleea Baita","alias":"Home"}],"photo":"/images/default-restaurant.jpg","phone":"12345677777","rating":4,"hours":{"thu":"12 - 22","fri":"12 - 22","mon":"12 - 22","sat":"12 - 22","tue":"12 - 22","wed":"12 - 22","sun":"12 - 18"},"logo":"/images/pizza-hut-logo.png","uid":"EJQpn8wM19qiqNoqaQhM","costs":{"noDeliveryAfterMinOrder":true,"packaging":5,"delivery":0,"minOrder":50},"status":"open","orders":["07Fh9KAY5LzrDV35ErtJ","jfTYV0oijGqXcAkgKRHn"]},{"orders":[],"costs":{"noDeliveryAfterMinOrder":true,"minOrder":50,"packaging":5,"delivery":0},"name":"Cartofisserie","photo":"/images/default-restaurant.jpg","description":"sdkljafl;sdfsafdsafsdfasdfas","addresses":[{"country":"Romania","city":"Cluj-Napoca","number":6,"alias":"Home","county":"Cluj","street":"aleea Baita"}],"uid":"g1jmv6xZMvYM3g7Ok8Fd","status":"closed","phone":"12345677777","rating":4,"logo":"/images/pizza-hut-logo.png","hours":{"fri":"12 - 22","wed":"12 - 22","thu":"12 - 22","sun":"12 - 18","mon":"12 - 22","sat":"12 - 22","tue":"12 - 22"}},{"addresses":[{"number":6,"street":"aleea Baita","country":"Romania","city":"Cluj-Napoca","county":"Cluj","alias":"Home"}],"orders":[],"status":"closed","name":"Cartofisserie","logo":"/images/pizza-hut-logo.png","description":"sdkljafl;sdfsafdsafsdfasdfas","rating":4,"costs":{"noDeliveryAfterMinOrder":true,"packaging":5,"delivery":0,"minOrder":50},"uid":"vNilZxRcd4XhTnTAxYyu","phone":"12345677777","photo":"/images/default-restaurant.jpg","hours":{"tue":"12 - 22","sun":"12 - 18","thu":"12 - 22","fri":"12 - 22","mon":"12 - 22","wed":"12 - 22","sat":"12 - 22"}}]},"__N_SSG":true}